{
  "hub": {
    "icao": "EGBB",
    "iata": "BHX",
    "name": "Birmingham",
    "country": "United Kingdom",
    "lat": 52.4539,
    "lon": -1.7480
  },
  "destinations": [
    {
      "iata": "AMS",
      "icao": "EHAM",
      "city": "Amsterdam",
      "country": "Netherlands",
      "lat": 52.3086,
      "lon": 4.7639,
      "aircraft": ["A319", "A320"],
      "status": "active"
    },
    {
      "iata": "DUS",
      "icao": "EDDL",
      "city": "Düsseldorf",
      "country": "Germany",
      "lat": 51.2895,
      "lon": 6.7668,
      "aircraft": ["A319", "A320"],
      "status": "active"
    },
    {
      "iata": "FRA",
      "icao": "EDDF",
      "city": "Frankfurt",
      "country": "Germany",
      "lat": 50.0379,
      "lon": 8.5622,
      "aircraft": ["A319", "A320", "A321"],
      "status": "active"
    },
    {
      "iata": "CDG",
      "icao": "LFPG",
      "city": "Paris",
      "country": "France",
      "lat": 49.0097,
      "lon": 2.5479,
      "aircraft": ["A319", "A320"],
      "status": "active"
    },
    {
      "iata": "DUB",
      "icao": "EIDW",
      "city": "Dublin",
      "country": "Ireland",
      "lat": 53.4213,
      "lon": -6.2701,
      "aircraft": ["A319", "A320"],
      "status": "active"
    },
    {
      "iata": "BRU",
      "icao": "EBBR",
      "city": "Brussels",
      "country": "Belgium",
      "lat": 50.9014,
      "lon": 4.4844,
      "aircraft": ["A319", "A320"],
      "status": "active"
    },
    {
      "iata": "CPH",
      "icao": "EKCH",
      "city": "Copenhagen",
      "country": "Denmark",
      "lat": 55.6181,
      "lon": 12.6560,
      "aircraft": ["A320", "A321"],
      "status": "active"
    },
    {
      "iata": "ZRH",
      "icao": "LSZH",
      "city": "Zurich",
      "country": "Switzerland",
      "lat": 47.4581,
      "lon": 8.5555,
      "aircraft": ["A319", "A320"],
      "status": "active"
    },
    {
      "iata": "MAD",
      "icao": "LEMD",
      "city": "Madrid",
      "country": "Spain",
      "lat": 40.4983,
      "lon": -3.5676,
      "aircraft": ["A321"],
      "status": "active"
    },
    {
      "iata": "MXP",
      "icao": "LIMC",
      "city": "Milan",
      "country": "Italy",
      "lat": 45.6306,
      "lon": 8.7281,
      "aircraft": ["A321"],
      "status": "active"
    },
    ,
{
  "iata": "MUC",
  "icao": "EDDM",
  "city": "Munich",
  "country": "Germany",
  "lat": 48.3538,
  "lon": 11.7861,
  "aircraft": ["A320"],
  "status": "active"
},
{
  "iata": "ARN",
  "icao": "ESSA",
  "city": "Stockholm",
  "country": "Sweden",
  "lat": 59.6519,
  "lon": 17.9186,
  "aircraft": ["A320"],
  "status": "active"
},
{
  "iata": "OSL",
  "icao": "ENGM",
  "city": "Oslo",
  "country": "Norway",
  "lat": 60.1939,
  "lon": 11.1004,
  "aircraft": ["A320"],
  "status": "active"
},
{
  "iata": "VIE",
  "icao": "LOWW",
  "city": "Vienna",
  "country": "Austria",
  "lat": 48.1103,
  "lon": 16.5697,
  "aircraft": ["A320"],
  "status": "active"
},
{
  "iata": "WAW",
  "icao": "EPWA",
  "city": "Warsaw",
  "country": "Poland",
  "lat": 52.1657,
  "lon": 20.9671,
  "aircraft": ["A320"],
  "status": "active"
},
{
  "iata": "FCO",
  "icao": "LIRF",
  "city": "Rome",
  "country": "Italy",
  "lat": 41.8003,
  "lon": 12.2389,
  "aircraft": ["A321"],
  "status": "active"
},
{
  "iata": "LIS",
  "icao": "LPPT",
  "city": "Lisbon",
  "country": "Portugal",
  "lat": 38.7742,
  "lon": -9.1342,
  "aircraft": ["A321"],
  "status": "active"
},
{
  "iata": "ALC",
  "icao": "LEAL",
  "city": "Alicante",
  "country": "Spain",
  "lat": 38.2822,
  "lon": -0.5582,
  "aircraft": ["A321"],
  "status": "active"
},
{
  "iata": "AGP",
  "icao": "LEMG",
  "city": "Málaga",
  "country": "Spain",
  "lat": 36.6749,
  "lon": -4.4991,
  "aircraft": ["A321"],
  "status": "active"
},
{
  "iata": "TFS",
  "icao": "GCTS",
  "city": "Tenerife South",
  "country": "Spain",
  "lat": 28.0445,
  "lon": -16.5725,
  "aircraft": ["A321"],
  "status": "active"
},
{
  "iata": "LPA",
  "icao": "GCLP",
  "city": "Gran Canaria",
  "country": "Spain",
  "lat": 27.9319,
  "lon": -15.3866,
  "aircraft": ["A321"],
  "status": "active"
},
{
  "iata": "ACE",
  "icao": "GCRR",
  "city": "Lanzarote",
  "country": "Spain",
  "lat": 28.9455,
  "lon": -13.6052,
  "aircraft": ["A321"],
  "status": "active"
},
{
  "iata": "PRG",
  "icao": "LKPR",
  "city": "Prague",
  "country": "Czech Republic",
  "lat": 50.1008,
  "lon": 14.2600,
  "aircraft": ["A319"],
  "status": "active"
},
{
  "iata": "INN",
  "icao": "LOWI",
  "city": "Innsbruck",
  "country": "Austria",
  "lat": 47.2602,
  "lon": 11.3439,
  "aircraft": ["A319"],
  "status": "active"
},
{
  "iata": "GVA",
  "icao": "LSGG",
  "city": "Geneva",
  "country": "Switzerland",
  "lat": 46.2381,
  "lon": 6.1089,
  "aircraft": ["A319"],
  "status": "active"
}
    {
      "iata": "JFK",
      "icao": "KJFK",
      "city": "New York",
      "country": "USA",
      "lat": 40.6413,
      "lon": -73.7781,
      "aircraft": ["A350-1000"],
      "status": "coming-soon"
    },
    {
      "iata": "MCO",
      "icao": "KMCO",
      "city": "Orlando",
      "country": "USA",
      "lat": 28.4312,
      "lon": -81.3081,
      "aircraft": ["A350-1000"],
      "status": "coming-soon"
    },
    {
      "iata": "CUN",
      "icao": "MMUN",
      "city": "Cancún",
      "country": "Mexico",
      "lat": 21.0365,
      "lon": -86.8771,
      "aircraft": ["A350-1000"],
      "status": "coming-soon"
    },
    {
      "iata": "PUJ",
      "icao": "MDPC",
      "city": "Punta Cana",
      "country": "Dominican Republic",
      "lat": 18.5674,
      "lon": -68.3634,
      "aircraft": ["A350-1000"],
      "status": "coming-soon"
    }
  ]
}
